[{
	"name": "Adams Building",
	"categories": "0",
	"address": "3450 University,  H3A 0E8",
	"latitude": 45.505493,
	"longitude": -73.575298,
	"id": 0
}, {
	"name": "Arts Building",
	"categories": "0",
	"address": "853 Sherbrooke Ouest,  H3A 0G4",
	"latitude": 45.505224,
	"longitude": -73.577727,
	"id": 1
}, {
	"name": "Beatty Hall",
	"categories": "0",
	"address": "1266 Pins Ouest,  H3G 1A8",
	"latitude": 45.50197,
	"longitude": -73.583933,
	"id": 2
}, {
	"name": "Birks Building",
	"categories": "0",
	"address": "3520 University,  H3A 2A7",
	"latitude": 45.506575,
	"longitude": -73.577408,
	"id": 3
}, {
	"name": "Bronfman Building",
	"categories": "0",
	"address": "1001 Sherbrooke Ouest,  H3A 1G5",
	"latitude": 45.502572,
	"longitude": -73.576442,
	"id": 4
}, {
	"name": "Brown Student Services Building",
	"categories": "0",
	"address": "3600 McTavish,  H3A 0G3",
	"latitude": 45.503726,
	"longitude": -73.578535,
	"id": 5
}, {
	"name": "Burnside Hall",
	"categories": "0",
	"address": "805 Sherbrooke Ouest,  H3A 0B9",
	"latitude": 45.504704,
	"longitude": -73.574985,
	"id": 6
}, {
	"name": "Charles Meredith House",
	"categories": "0",
	"address": "1130 Pins Ouest,  H3A 1A3",
	"latitude": 45.503888,
	"longitude": -73.58217,
	"id": 7
}, {
	"name": "Currie Gymnasium",
	"categories": "0",
	"address": "475 Pins Ouest,  H2W 1S4",
	"latitude": 45.510004,
	"longitude": -73.579659,
	"id": 8
}, {
	"name": "Davis House",
	"categories": "0",
	"address": "3654 Sir William Osler,  H3G 1Y5",
	"latitude": 45.50227,
	"longitude": -73.582841,
	"id": 9
}, {
	"name": "Dawson Hall",
	"categories": "0",
	"address": "853 Sherbrooke Ouest,  H3A 0G5",
	"latitude": 45.505576,
	"longitude": -73.577368,
	"id": 10
}, {
	"name": "Duff Medical Building",
	"categories": "0",
	"address": "3775 University,  H3A 2B4",
	"latitude": 45.508824,
	"longitude": -73.580616,
	"id": 11
}, {
	"name": "Duggan House",
	"categories": "0",
	"address": "3724 McTavish,  H3A 1Y2",
	"latitude": 45.504931,
	"longitude": -73.581144,
	"id": 12
}, {
	"name": "Education Building",
	"categories": "0",
	"address": "3700 McTavish,  H3A 1Y2",
	"latitude": 45.504333,
	"longitude": -73.580492,
	"id": 13
}, {
	"name": "Faculty Club",
	"categories": "0",
	"address": "3450 McTavish,  H3A 0E5",
	"latitude": 45.503156,
	"longitude": -73.577286,
	"id": 14
}, {
	"name": "Ferrier Building",
	"categories": "0",
	"address": "840 Doctor-Penfield,  H3A 0G2",
	"latitude": 45.505627,
	"longitude": -73.578097,
	"id": 15
}, {
	"name": "Hosmer House",
	"categories": "0",
	"address": "3630 Sir William Osler,  H3G 1Y5",
	"latitude": 45.501942,
	"longitude": -73.582235,
	"id": 16
}, {
	"name": "Hugessen House",
	"categories": "0",
	"address": "3666 McTavish,  H3A 1Y2",
	"latitude": 45.504394,
	"longitude": -73.580023,
	"id": 17
}, {
	"name": "James Administration Building",
	"categories": "0",
	"address": "845 Sherbrooke Ouest,  H3A 2T5",
	"latitude": 45.506169,
	"longitude": -73.577676,
	"id": 18
}, {
	"name": "Leacock Building",
	"categories": "0",
	"address": "855 Sherbrooke Ouest,  H3A 2T7",
	"latitude": 45.504371,
	"longitude": -73.578038,
	"id": 19
}, {
	"name": "Maass Chemistry Building",
	"categories": "0",
	"address": "801 Sherbrooke Ouest,  H3A 0B8",
	"latitude": 45.504915,
	"longitude": -73.574081,
	"id": 20
}, {
	"name": "Macdonald Engineering Building",
	"categories": "0",
	"address": "817 Sherbrooke Ouest,  H3A 0C3",
	"latitude": 45.505366,
	"longitude": -73.576617,
	"id": 21
}, {
	"name": "Macdonald Stewart Library Building",
	"categories": "0",
	"address": "809 Sherbrooke Ouest,  H3A 0C1",
	"latitude": 45.505065,
	"longitude": -73.575355,
	"id": 22
}, {
	"name": "McConnell Engineering Building",
	"categories": "0",
	"address": "3480 University,  H3A 0E9",
	"latitude": 45.505955,
	"longitude": -73.576263,
	"id": 23
}, {
	"name": "McGill Bookstore",
	"categories": "0",
	"address": "3420 McTavish,  H3A 3L1",
	"latitude": 45.502872,
	"longitude": -73.576861,
	"id": 24
}, {
	"name": "McLennan Library Building",
	"categories": "0",
	"address": "3459 McTavish,  H3A 0C9",
	"latitude": 45.503218,
	"longitude": -73.575874,
	"id": 25
}, {
	"name": "McIntyre Medical Building",
	"categories": "0",
	"address": "3655 Sir William Osler,  H3G 1Y6",
	"latitude": 45.503056,
	"longitude": -73.582501,
	"id": 26
}, {
	"name": "Macdonald Harrington Building",
	"categories": "0",
	"address": "815 Sherbrooke Ouest,  H3A 0C2",
	"latitude": 45.505315,
	"longitude": -73.575832,
	"id": 27
}, {
	"name": "Montreal General Hospital",
	"categories": "0",
	"address": "1650 Cedar,  H3G 1A4",
	"latitude": 45.497082,
	"longitude": -73.588589,
	"id": 28
}, {
	"name": "Montreal Neurological Institute",
	"categories": "0",
	"address": "3801 University,  H3A 2B4",
	"latitude": 45.509039,
	"longitude": -73.581357,
	"id": 29
}, {
	"name": "Morrice Hall",
	"categories": "0",
	"address": "3485 McTavish,  H3A 0E1",
	"latitude": 45.503997,
	"longitude": -73.577735,
	"id": 30
}, {
	"name": "McTavish 3430",
	"categories": "0",
	"address": "3430 McTavish,  H3A 0E2",
	"latitude": 45.503003,
	"longitude": -73.576909,
	"id": 31
}, {
	"name": "McTavish 3434",
	"categories": "0",
	"address": "3434 McTavish,  H3A 0E3",
	"latitude": 45.503044,
	"longitude": -73.57699,
	"id": 32
}, {
	"name": "McTavish 3438",
	"categories": "0",
	"address": "3438 McTavish,  H3A 0E4",
	"latitude": 45.503084,
	"longitude": -73.577078,
	"id": 33
}, {
	"name": "McTavish 3610 ",
	"categories": "0",
	"address": "3610 McTavish,  H3A 1Y2",
	"latitude": 45.503932,
	"longitude": -73.579074,
	"id": 34
}, {
	"name": "(New) Chancellor Day Hall(",
	"categories": "0",
	"address": "3644 Peel,  H3A 1W9",
	"latitude": 45.502951,
	"longitude": -73.58084,
	"id": 35
}, {
	"name": "Old Chancellor Day Hall",
	"categories": "0",
	"address": "3644 Peel,  H3A 1W9",
	"latitude": 45.503205,
	"longitude": -73.580609,
	"id": 36
}, {
	"name": "Dr. Penfield 1085",
	"categories": "0",
	"address": "1085 Doctor-Penfield,  H3A 1A7",
	"latitude": 45.503638,
	"longitude": -73.57941,
	"id": 37
}, {
	"name": "Peterson Hall",
	"categories": "0",
	"address": "3460 McTavish,  H3A 0E6",
	"latitude": 45.503313,
	"longitude": -73.577691,
	"id": 38
}, {
	"name": "Peel 3437",
	"categories": "0",
	"address": "3437 Peel,  H3A 1W7",
	"latitude": 45.502593,
	"longitude": -73.577556,
	"id": 39
}, {
	"name": "Peel 3465",
	"categories": "0",
	"address": "3465 Peel,  H3A 1W7",
	"latitude": 45.502907,
	"longitude": -73.578198,
	"id": 40
}, {
	"name": "Peel 3475",
	"categories": "0",
	"address": "3475 Peel,  H3A 1W7",
	"latitude": 45.503006,
	"longitude": -73.578391,
	"id": 41
}, {
	"name": "Peel 3487",
	"categories": "0",
	"address": "3487 Peel,  H3A 1W7",
	"latitude": 45.503127,
	"longitude": -73.578618,
	"id": 42
}, {
	"name": "Peel 3505",
	"categories": "0",
	"address": "3505 Peel,  H3A 1W7",
	"latitude": 45.503302,
	"longitude": -73.579011,
	"id": 43
}, {
	"name": "Peel 3511",
	"categories": "0",
	"address": "3511 Peel,  H4A 1W7",
	"latitude": 45.50338,
	"longitude": -73.579155,
	"id": 44
}, {
	"name": "Peel 3647",
	"categories": "0",
	"address": "3647 Peel,  H3A 1X1",
	"latitude": 45.503879,
	"longitude": -73.580023,
	"id": 45
}, {
	"name": "Peel 3661",
	"categories": "0",
	"address": "3661 Peel,  H3A 1XA",
	"latitude": 45.504048,
	"longitude": -73.580331,
	"id": 46
}, {
	"name": "Peel 3674",
	"categories": "0",
	"address": "3674 Peel,  H3A 1W9",
	"latitude": 45.503701,
	"longitude": -73.581018,
	"id": 47
}, {
	"name": "Peel 3690",
	"categories": "0",
	"address": "3690 Peel,  H3A 1W9",
	"latitude": 45.503739,
	"longitude": -73.581133,
	"id": 48
}, {
	"name": "Peel 3715",
	"categories": "0",
	"address": "3715 Peel,  H3A 1X1",
	"latitude": 45.504386,
	"longitude": -73.58101,
	"id": 49
}, {
	"name": "Penfield 740 (Genome)",
	"categories": "0",
	"address": "740 Doctor-Penfield,  H3A 0G1",
	"latitude": 45.506957,
	"longitude": -73.579599,
	"id": 50
}, {
	"name": "Pulp and Paper Research Centre",
	"categories": "0",
	"address": "3420 University,  H3A 2A7",
	"latitude": 45.505298,
	"longitude": -73.574797,
	"id": 51
}, {
	"name": "Purvis Hall",
	"categories": "0",
	"address": "1020 Pins Ouest,  H3A 1A2",
	"latitude": 45.504612,
	"longitude": -73.581463,
	"id": 52
}, {
	"name": "Redpath Library Building",
	"categories": "0",
	"address": "3459 McTavish,  H3A 0C9",
	"latitude": 45.503501,
	"longitude": -73.576593,
	"id": 53
}, {
	"name": "Redpath Museum",
	"categories": "0",
	"address": "859 Sherbrooke Ouest,  H3A 0C4",
	"latitude": 45.504463,
	"longitude": -73.577534,
	"id": 54
}, {
	"name": "Redpath Hall",
	"categories": "0",
	"address": "3461 McTavish,  H3A 2K6",
	"latitude": 45.503766,
	"longitude": -73.577376,
	"id": 55
}, {
	"name": "Rutherford Physics Building",
	"categories": "0",
	"address": "3600 University,  H3A 2T8",
	"latitude": 45.507036,
	"longitude": -73.578484,
	"id": 56
}, {
	"name": "Royal Victoria Hospital",
	"categories": "0",
	"address": "687 des Pins,  H3A 1A1",
	"latitude": 45.508149,
	"longitude": -73.581791,
	"id": 57
}, {
	"name": "Strathcona Anatomy & Dentistry Building",
	"categories": "0",
	"address": "3640 University,  H3A 0C7",
	"latitude": 45.507427,
	"longitude": -73.579825,
	"id": 58
}, {
	"name": "Sherbrooke 550",
	"categories": "0",
	"address": "550 Sherbrooke Ouest,  H3A 1B9",
	"latitude": 45.505537,
	"longitude": -73.572223,
	"id": 59
}, {
	"name": "Sherbrooke 688",
	"categories": "0",
	"address": "688 Sherbrooke Ouest,  H3A 3R1",
	"latitude": 45.504565,
	"longitude": -73.573175,
	"id": 60
}, {
	"name": "Stewart Biology Building",
	"categories": "0",
	"address": "1205 Doctor-Penfield,  H3A 1B1",
	"latitude": 45.502408,
	"longitude": -73.581585,
	"id": 61
}, {
	"name": "Strathcona Music Building",
	"categories": "0",
	"address": "555 Sherbrooke Ouest,  H3A 1E3",
	"latitude": 45.505818,
	"longitude": -73.573536,
	"id": 62
}, {
	"name": "Thomson House",
	"categories": "0",
	"address": "3650 McTavish,  H3A 1Y2",
	"latitude": 45.504251,
	"longitude": -73.579693,
	"id": 63
}, {
	"name": "Trottier Building",
	"categories": "0",
	"address": "3630 University,  H3A 0C6",
	"latitude": 45.50739,
	"longitude": -73.57909,
	"id": 64
}, {
	"name": "University 3534",
	"categories": "0",
	"address": "3534 University,  H3A 2A7",
	"latitude": 45.506704,
	"longitude": -73.577596,
	"id": 65
}, {
	"name": "University 3550",
	"categories": "0",
	"address": "3550 University,  H3A 2A7",
	"latitude": 45.506862,
	"longitude": -73.577867,
	"id": 66
}, {
	"name": "University Centre (Shatner Building)",
	"categories": "0",
	"address": "3480 McTavish,  H3A 0E7",
	"latitude": 45.5035012,
	"longitude": -73.578223,
	"id": 67
}, {
	"name": "Wilson Hall",
	"categories": "0",
	"address": "3506 University,  H3A 2A7",
	"latitude": 45.506342,
	"longitude": -73.576979,
	"id": 68
}, {
	"name": "Wong Building",
	"categories": "0",
	"address": "3610 University,  H3A 0C5",
	"latitude": 45.506619,
	"longitude": -73.578746,
	"id": 69
}, {
	"name": "McIntyre Café",
	"categories": "1",
	"address": "McIntyre Medical Building",
	"latitude": 45.503056,
	"longitude": -73.582501,
	"id": 70
}, {
	"name": "Second Cup",
	"categories": "1",
	"address": "Stewart Biology Building",
	"latitude": 45.502408,
	"longitude": -73.581585,
	"id": 71
}, {
	"name": "le comptoir MAC",
	"categories": "1",
	"address": "Barton Building",
	"latitude": 45.407981,
	"longitude": -73.938073,
	"id": 72
}, {
	"name": "Avvocato Café",
	"categories": "1",
	"address": "(New) Chancellor Day Hall",
	"latitude": 45.502951,
	"longitude": -73.58084,
	"id": 73
}, {
	"name": "Education Café",
	"categories": "1",
	"address": "Education Building",
	"latitude": 45.504333,
	"longitude": -73.580492,
	"id": 74
}, {
	"name": "Al Taib & Gerts Pub",
	"categories": "1",
	"address": "University Centre (Shatner Building)",
	"latitude": 45.5035012,
	"longitude": -73.578223,
	"id": 75
}, {
	"name": "Bento Sushi",
	"categories": "1",
	"address": "Bronfman Building",
	"latitude": 45.502572,
	"longitude": -73.576442,
	"id": 76
}, {
	"name": "Quesada",
	"categories": "1",
	"address": "Bronfman Building",
	"latitude": 45.502572,
	"longitude": -73.576442,
	"id": 77
}, {
	"name": "Première Moisson",
	"categories": "1",
	"address": "Redpath Library Building",
	"latitude": 45.503501,
	"longitude": -73.576593,
	"id": 78
}, {
	"name": "Subway",
	"categories": "1",
	"address": "Arts Building",
	"latitude": 45.505224,
	"longitude": -73.577727,
	"id": 79
}, {
	"name": "Burnside Café",
	"categories": "1",
	"address": "Burnside Hall",
	"latitude": 45.504704,
	"longitude": -73.574985,
	"id": 80
}, {
	"name": "E-Café",
	"categories": "1",
	"address": "McConnell Engineering Building",
	"latitude": 45.505955,
	"longitude": -73.576263,
	"id": 81
}, {
	"name": "Dispatch Café",
	"categories": "1",
	"address": "McConnell Engineering Building",
	"latitude": 45.505955,
	"longitude": -73.576263,
	"id": 82
}, {
	"name": "rue McGill Deli",
	"categories": "1",
	"address": "Trottier Building",
	"latitude": 45.50739,
	"longitude": -73.57909,
	"id": 83
}, {
	"name": "St-Hubert Express",
	"categories": "1",
	"address": "Trottier Building",
	"latitude": 45.50739,
	"longitude": -73.57909,
	"id": 84
}, {
	"name": "Fabergé Express",
	"categories": "1",
	"address": "Duff Medical Building",
	"latitude": 45.508824,
	"longitude": -73.580616,
	"id": 85
}, {
	"name": "Athletics Café",
	"categories": "1",
	"address": "Currie Gymnasium",
	"latitude": 45.510004,
	"longitude": -73.579659,
	"id": 86
}, {
	"name": "Royal Victoria College Dining Hall",
	"categories": "1",
	"address": "Royal Victoria College",
	"latitude": 45.505381,
	"longitude": -73.573968,
	"id": 87
}, {
	"name": "Carrefour Sherbrooke Dining Hall",
	"categories": "1",
	"address": "Carrefour Sherbrooke",
	"latitude": 45.506712,
	"longitude": -73.57261,
	"id": 88
}, {
	"name": "Première Moisson",
	"categories": "1",
	"address": "New Residence Hall",
	"latitude": 45.510903,
	"longitude": -73.57615,
	"id": 89
}, {
	"name": "New Residence Dining Hall",
	"categories": "1",
	"address": "New Residence Hall",
	"latitude": 45.510903,
	"longitude": -73.57615,
	"id": 90
}, {
	"name": "Douglas Dining Hall",
	"categories": "1",
	"address": "Douglas Hall",
	"latitude": 45.509107,
	"longitude": -73.581725,
	"id": 91
}, {
	"name": "Bishop Mountain Hall",
	"categories": "1",
	"address": "Bishop Mountain Hall",
	"latitude": 45.510656,
	"longitude": -73.583728,
	"id": 92
}, {
	"name": "Faculty Club",
	"categories": "1",
	"address": "Faculty Club",
	"latitude": 45.503156,
	"longitude": -73.577286,
	"id": 93
}, {
	"name": "La Prep",
	"categories": "1",
	"address": "University Centre",
	"latitude": 45.5035012,
	"longitude": -73.578223,
	"id": 94
}, {
	"name": "PGSS",
	"categories": "1",
	"address": "Thomson House",
	"latitude": 45.504251,
	"longitude": -73.579693,
	"id": 95
}, {
	"name": "Liquid Nutrition",
	"categories": "1",
	"address": "University Centre",
	"latitude": 45.5035012,
	"longitude": -73.578223,
	"id": 96
}, {
	"name": "Mange Tout Cafe",
	"categories": "1",
	"address": "La Citadelle Building",
	"latitude": 45.50729,
	"longitude": -73.571525,
	"id": 97
}, {
	"name": "S.S.M.U. (Student's Society of McGill)",
	"categories": "1",
	"address": "University Centre",
	"latitude": 45.5035012,
	"longitude": -73.578223,
	"id": 98
}, {
	"name": "Vinh's Café",
	"categories": "1",
	"address": "Penfield 740 (Genome)",
	"latitude": 45.506957,
	"longitude": -73.579599,
	"id": 99
}, {
	"name": "Vinh's Music Building",
	"categories": "1",
	"address": "Strathcona Music Building",
	"latitude": 45.505818,
	"longitude": -73.573536,
	"id": 100
}, {
	"name": "Life Sciences Library",
	"categories": "2",
	"address": "McIntyre Medical Building",
	"latitude": 45.503056,
	"longitude": -73.582501,
	"id": 101
}, {
	"name": "Nahum Gelber Law Library",
	"categories": "2",
	"address": "Gelber Law Library",
	"latitude": 45.503505,
	"longitude": -73.580735,
	"id": 102
}, {
	"name": "Education Library & Curriculum Resources Centre",
	"categories": "2",
	"address": "Education Building",
	"latitude": 45.504333,
	"longitude": -73.580492,
	"id": 103
}, {
	"name": "Islamic Studies Library",
	"categories": "2",
	"address": "Morrice Hall",
	"latitude": 45.503997,
	"longitude": -73.577735,
	"id": 104
}, {
	"name": "Blackader-Lauterman Library",
	"categories": "2",
	"address": "Redpath Library Building",
	"latitude": 45.503501,
	"longitude": -73.576593,
	"id": 105
}, {
	"name": "Humanities and Social Sciences Library",
	"categories": "2",
	"address": "Redpath Library Building",
	"latitude": 45.503501,
	"longitude": -73.576593,
	"id": 106
}, {
	"name": "Edward Rosenthall Mathematics and Statistics Library",
	"categories": "2",
	"address": "Burnside Hall",
	"latitude": 45.504704,
	"longitude": -73.574985,
	"id": 107
}, {
	"name": "Schulich Library of Science and Engineering",
	"categories": "2",
	"address": "Macdonald Stewart Library Building",
	"latitude": 45.505065,
	"longitude": -73.575355,
	"id": 108
}, {
	"name": "Birks Reading Room",
	"categories": "2",
	"address": "Birks Building",
	"latitude": 45.506575,
	"longitude": -73.577408,
	"id": 109
}, {
	"name": "Marvin Duchow Music Library",
	"categories": "2",
	"address": "New Music Building",
	"latitude": 45.506228,
	"longitude": -73.57324,
	"id": 110
}, {
	"name": "Howard Ross Library of Management",
	"categories": "2",
	"address": "McLennan Library Building",
	"latitude": 45.503218,
	"longitude": -73.575874,
	"id": 111
}, {
	"name": "Rare Books and Special Collections",
	"categories": "2",
	"address": "Redpath Library Building",
	"latitude": 45.503501,
	"longitude": -73.576593,
	"id": 112
}, {
	"name": "McGill University Archives",
	"categories": "2",
	"address": "McLennan Library Building",
	"latitude": 45.503218,
	"longitude": -73.575874,
	"id": 113
}, {
	"name": "Osler Library of the History of Medicine",
	"categories": "2",
	"address": "McIntyre Medical Building",
	"latitude": 45.503056,
	"longitude": -73.582501,
	"id": 114
}, {
	"name": "Walter Hitschfeld Geography Information Centre",
	"categories": "2",
	"address": "Burnside Hall",
	"latitude": 45.504704,
	"longitude": -73.574985,
	"id": 115
}, {
	"name": "Macdonald Campus Library",
	"categories": "2",
	"address": "Barton Building",
	"latitude": 45.407981,
	"longitude": -73.938073,
	"id": 116
}, {
	"name": "Barton Building",
	"categories": "0",
	"address": "21111 Lakeshore Road St Anne de Bellevue",
	"latitude": 45.407981,
	"longitude": -73.938073,
	"id": 117
}, {
	"name": "Brace Research Unit",
	"categories": "0",
	"address": "21111 Lakeshore Road St Anne de Bellevue",
	"latitude": 45.405384,
	"longitude": -73.936365,
	"id": 118
}, {
	"name": "Brittain Hall",
	"categories": "0",
	"address": "21111 Lakeshore Road St Anne de Bellevue",
	"latitude": 45.404854,
	"longitude": -73.942925,
	"id": 119
}, {
	"name": "Cattle Complex",
	"categories": "0",
	"address": "21111 Lakeshore Road St Anne de Bellevue",
	"latitude": 45.412033,
	"longitude": -73.94436,
	"id": 120
}, {
	"name": "Centennial Centre Building (Student Service)",
	"categories": "0",
	"address": "21111 Lakeshore Road St Anne de Bellevue",
	"latitude": 45.405997,
	"longitude": -73.938889,
	"id": 121
}, {
	"name": "Department of Bioresource Engineering",
	"categories": "0",
	"address": "21111 Lakeshore Road St Anne de Bellevue",
	"latitude": 45.407801,
	"longitude": -73.938701,
	"id": 122
}, {
	"name": "EcoMuseum",
	"categories": "0",
	"address": "21125 Sainte Marie Rd",
	"latitude": 45.426159,
	"longitude": -73.935635,
	"id": 123
}, {
	"name": "EcoResidence",
	"categories": "0",
	"address": "21111 Lakeshore Road St Anne de Bellevue",
	"latitude": 45.407187,
	"longitude": -73.935042,
	"id": 124
}, {
	"name": "Farm Centre",
	"categories": "0",
	"address": "21111 Lakeshore Road St Anne de Bellevue",
	"latitude": 45.411652,
	"longitude": -73.943186,
	"id": 125
}, {
	"name": "Facilities Management",
	"categories": "0",
	"address": "21111 Lakeshore Road St Anne de Bellevue",
	"latitude": 45.403428,
	"longitude": -73.94017,
	"id": 126
}, {
	"name": "Glenfinnan Arena",
	"categories": "0",
	"address": "21111 Lakeshore Road St Anne de Bellevue",
	"latitude": 45.407675,
	"longitude": -73.943708,
	"id": 127
}, {
	"name": "Glenaladale House",
	"categories": "0",
	"address": "21111 Lakeshore Road St Anne de Bellevue",
	"latitude": 45.403563,
	"longitude": -73.943267,
	"id": 128
}, {
	"name": "Harrison House",
	"categories": "0",
	"address": "21111 Lakeshore Road St Anne de Bellevue",
	"latitude": 45.405191,
	"longitude": -73.937515,
	"id": 129
}, {
	"name": "Horticultural Services",
	"categories": "0",
	"address": "21111 Lakeshore Road St Anne de Bellevue",
	"latitude": 45.40909,
	"longitude": -73.936521,
	"id": 130
}, {
	"name": "Institute of Parasitology",
	"categories": "0",
	"address": "21111 Lakeshore Road St Anne de Bellevue",
	"latitude": 45.408434,
	"longitude": -73.938422,
	"id": 131
}, {
	"name": "Large Animal Research Unit",
	"categories": "0",
	"address": "21111 Lakeshore Road St Anne de Bellevue",
	"latitude": 45.410221,
	"longitude": -73.945068,
	"id": 132
}, {
	"name": "Laird Hall",
	"categories": "0",
	"address": "21111 Lakeshore Road St Anne de Bellevue",
	"latitude": 45.406885,
	"longitude": -73.939479,
	"id": 133
}, {
	"name": "Macdonald Campus Daycare",
	"categories": "0",
	"address": "1 Maple St Anne de Bellevue",
	"latitude": 45.403129,
	"longitude": -73.944215,
	"id": 134
}, {
	"name": "Nutrition Barn",
	"categories": "0",
	"address": "21111 Lakeshore Road St Anne de Bellevue",
	"latitude": 45.411136,
	"longitude": -73.944264,
	"id": 135
}, {
	"name": "Old Barn",
	"categories": "0",
	"address": "21111 Lakeshore Road St Anne de Bellevue",
	"latitude": 45.411923,
	"longitude": -73.941667,
	"id": 136
}, {
	"name": "Power House",
	"categories": "0",
	"address": "21111 Lakeshore Road St Anne de Bellevue",
	"latitude": 45.404595,
	"longitude": -73.938885,
	"id": 137
}, {
	"name": "Donald McQueen Shaver Poultry Research Center",
	"categories": "0",
	"address": "21111 Lakeshore Road St Anne de Bellevue",
	"latitude": 45.413946,
	"longitude": -73.942354,
	"id": 138
}, {
	"name": "Raymond Building",
	"categories": "0",
	"address": "21111 Lakeshore Road St Anne de Bellevue",
	"latitude": 45.407774,
	"longitude": -73.939645,
	"id": 139
}, {
	"name": "Rowles House",
	"categories": "0",
	"address": "21111 Lakeshore Road St Anne de Bellevue",
	"latitude": 45.405144,
	"longitude": -73.937934,
	"id": 140
}, {
	"name": "Stewart Athletic Complex",
	"categories": "0",
	"address": "21111 Lakeshore Road St Anne de Bellevue",
	"latitude": 45.405381,
	"longitude": -73.94045,
	"id": 141
}, {
	"name": "Tadja Hall",
	"categories": "0",
	"address": "21111 Lakeshore Road St Anne de Bellevue",
	"latitude": 45.404388,
	"longitude": -73.937481,
	"id": 142
}, {
	"name": "Carrefour Sherbrooke",
	"categories": "3",
	"address": "475 Sherbrooke Ouest",
	"latitude": 45.506712,
	"longitude": -73.57261,
	"id": 143
}, {
	"name": "Douglas Hall",
	"categories": "3",
	"address": "3851 University",
	"latitude": 45.509107,
	"longitude": -73.581725,
	"id": 144
}, {
	"name": "Greenbriar Apartments",
	"categories": "3",
	"address": "3575 University",
	"latitude": 45.507359,
	"longitude": -73.577901,
	"id": 145
}, {
	"name": "La Citadelle Buidling",
	"categories": "3",
	"address": "410 Sherbrooke Ouest",
	"latitude": 45.50729,
	"longitude": -73.571525,
	"id": 146
}, {
	"name": "McConnell Hall",
	"categories": "3",
	"address": "3905 University",
	"latitude": 45.510943,
	"longitude": -73.583118,
	"id": 147
}, {
	"name": "Molson Hall",
	"categories": "3",
	"address": "3915 University",
	"latitude": 45.511105,
	"longitude": -73.583919,
	"id": 148
}, {
	"name": "Gardner Hall",
	"categories": "3",
	"address": "3925 University",
	"latitude": 45.510347,
	"longitude": -73.584252,
	"id": 149
}, {
	"name": "M.O.R.E. House Peel",
	"categories": "3",
	"address": "3491 Peel",
	"latitude": 45.503149,
	"longitude": -73.578662,
	"id": 150
}, {
	"name": "M.O.R.E. House University 1",
	"categories": "3",
	"address": "3561 University",
	"latitude": 45.50725,
	"longitude": -73.577728,
	"id": 151
}, {
	"name": "M.O.R.E. House University 2",
	"categories": "3",
	"address": "3619 University",
	"latitude": 45.507811,
	"longitude": -73.578975,
	"id": 152
}, {
	"name": "M.O.R.E. House University 3",
	"categories": "3",
	"address": "3653 University",
	"latitude": 45.508174,
	"longitude": -73.579719,
	"id": 153
}, {
	"name": "M.O.R.E. House Pine 1",
	"categories": "3",
	"address": "546 Pine",
	"latitude": 45.50847,
	"longitude": -73.579714,
	"id": 154
}, {
	"name": "M.O.R.E. House Pine 2",
	"categories": "3",
	"address": "510 Pine",
	"latitude": 45.508995,
	"longitude": -73.579537,
	"id": 155
}, {
	"name": "M.O.R.E. House Pine 3",
	"categories": "3",
	"address": "515 Pine",
	"latitude": 45.509152,
	"longitude": -73.57997,
	"id": 156
}, {
	"name": "New Residence Hall",
	"categories": "3",
	"address": "3625 Parc",
	"latitude": 45.510903,
	"longitude": -73.57615,
	"id": 157
}, {
	"name": "Royal Victoria College (RVC)",
	"categories": "3",
	"address": "3425 University",
	"latitude": 45.505381,
	"longitude": -73.573968,
	"id": 158
}, {
	"name": "Solin Hall",
	"categories": "3",
	"address": "3510 Lionel-Groulx",
	"latitude": 45.481275,
	"longitude": -73.581653,
	"id": 159
}, {
	"name": "University Hall",
	"categories": "3",
	"address": "3473 University",
	"latitude": 45.506409,
	"longitude": -73.575539,
	"id": 160
}, {
	"name": "Pres Rez",
	"categories": "3",
	"address": "3495 University",
	"latitude": 45.506528,
	"longitude": -73.575936,
	"id": 161
}, {
	"name": "Bishop Mountain Hall",
	"categories": "3",
	"address": "3935 University",
	"latitude": 45.510656,
	"longitude": -73.583728,
	"id": 162
}, {
	"name": "ECO Residence",
	"categories": "3",
	"address": "21111 Lakeshore Road St Anne de Bellevue",
	"latitude": 45.407187,
	"longitude": -73.935042,
	"id": 163
}, {
	"name": "Laird Hall",
	"categories": "3",
	"address": "21111 Lakeshore Road St Anne de Bellevue",
	"latitude": 45.406885,
	"longitude": -73.939479,
	"id": 164
}, {
	"name": "EUS Common Room (Blues Pub)",
	"categories": "4",
	"address": "McConnell Engineering Building",
	"latitude": 45.505955,
	"longitude": -73.576263,
	"id": 165
}, {
	"name": "4a7",
	"categories": "4",
	"address": "Bronfman Building",
	"latitude": 45.502572,
	"longitude": -73.576442,
	"id": 166
}, {
	"name": "BDA (Bar des Arts)",
	"categories": "4",
	"address": "Leacock Building",
	"latitude": 45.504371,
	"longitude": -73.578038,
	"id": 167
}, {
	"name": "Gerts",
	"categories": "4",
	"address": "University Centre (Shatner Building)",
	"latitude": 45.5035012,
	"longitude": -73.578223,
	"id": 168
}, {
	"name": "Frostbite",
	"categories": "4",
	"address": "McConnell Engineering Building",
	"latitude": 45.505955,
	"longitude": -73.576263,
	"id": 169
}, {
	"name": "ECSESS Lounge",
	"categories": "4",
	"address": "Trottier Building",
	"latitude": 45.50739,
	"longitude": -73.57909,
	"id": 170
}, {
	"name": "BMO Branch",
	"categories": "6, 5",
	"address": "93 St-Anne,  H9X 1L9",
	"latitude": 45.412412,
	"longitude": -73.948399,
	"id": 171
}, {
	"name": "BMO ATM",
	"categories": "6, 5",
	"address": "305 Des Anciens Combatants,  H9X 1Y9",
	"latitude": 45.411275,
	"longitude": -73.950802,
	"id": 172
}, {
	"name": "National Bank ATM",
	"categories": "7, 5",
	"address": "33 St-Pierre,  H9X 1Z5",
	"latitude": 45.405324,
	"longitude": -73.950643,
	"id": 173
}, {
	"name": "CIBC ATM",
	"categories": "8, 5",
	"address": "21275 Lakeshore,  H9X 3L9",
	"latitude": 45.405286,
	"longitude": -73.94188,
	"id": 174
}, {
	"name": "RBC ATM",
	"categories": "9, 5",
	"address": "56 Sainte Anne,  H9X 1L6",
	"latitude": 45.403088,
	"longitude": 73.949662,
	"id": 175
}, {
	"name": "RBC ATM",
	"categories": "9, 5",
	"address": "Department of Bioresource Engineering Macdonald Stewart Building",
	"latitude": 45.407801,
	"longitude": -73.938701,
	"id": 176
}, {
	"name": "CIBC Branch",
	"categories": "8, 5",
	"address": "1006 Sherbrooke W,  H3A 2S2",
	"latitude": 45.502385,
	"longitude": -73.575869,
	"id": 177
}, {
	"name": "Scotiabank ATM",
	"categories": "10, 5",
	"address": "University Centre (Shatner Building)",
	"latitude": 45.5035012,
	"longitude": -73.578223,
	"id": 178
}, {
	"name": "Scotiabank ATM",
	"categories": "10, 5",
	"address": "1100 Docteur Penfield,  H3A 1A8",
	"latitude": 45.50262,
	"longitude": -73.580209,
	"id": 179
}, {
	"name": "CIBC ATM",
	"categories": "8, 5",
	"address": "1200 Mcgill College,  H3B 4G7",
	"latitude": 45.501506,
	"longitude": -73.570516,
	"id": 180
}, {
	"name": "CIBC Branch",
	"categories": "8, 5",
	"address": "600 Cathcart,  H3B 1K8",
	"latitude": 45.503794,
	"longitude": -73.568168,
	"id": 181
}, {
	"name": "TD Branch",
	"categories": "11, 5",
	"address": "2001 University,  H3A 2A6",
	"latitude": 45.504564,
	"longitude": -73.572159,
	"id": 182
}, {
	"name": "Scotiabank Branch",
	"categories": "10, 5",
	"address": "1002 Sherbrooke W,  H3A 3L6",
	"latitude": 45.502235,
	"longitude": -73.574962,
	"id": 183
}, {
	"name": "Scotiabank ATM",
	"categories": "10, 5",
	"address": "977 St-Catherine W,  H3B 4W3",
	"latitude": 45.501044,
	"longitude": -73.57234,
	"id": 184
}, {
	"name": "Scotiabank ATM",
	"categories": "10, 5",
	"address": "1500 Mcgill College,  H3A 3J5",
	"latitude": 45.502278,
	"longitude": -73.572724,
	"id": 185
}, {
	"name": "Scotiabank ATM",
	"categories": "10, 5",
	"address": "600 De Maisonneuve,  H3A 3J2",
	"latitude": 45.504623,
	"longitude": -73.571113,
	"id": 186
}, {
	"name": "Scotiabank Branch",
	"categories": "10, 5",
	"address": "2055 University,  H3A 3H9",
	"latitude": 45.504451,
	"longitude": -73.572141,
	"id": 187
}, {
	"name": "Scotiabank ATM",
	"categories": "10, 5",
	"address": "333 President Kennedy,  H2X 4C7",
	"latitude": 45.507733,
	"longitude": -73.56957,
	"id": 188
}, {
	"name": "National Bank Branch",
	"categories": "7, 5",
	"address": "1140 Sherbrooke W,  H3A 2S1",
	"latitude": 45.501227,
	"longitude": -73.577064,
	"id": 189
}, {
	"name": "National Bank ATM",
	"categories": "7, 5",
	"address": "1411 Peel,  H3A 1S5",
	"latitude": 45.500285,
	"longitude": -73.573086,
	"id": 190
}, {
	"name": "National Bank Branch",
	"categories": "7, 5",
	"address": "955 De Maisonneuve W,  H3A 1M4",
	"latitude": 45.502204,
	"longitude": -73.573457,
	"id": 191
}, {
	"name": "National Bank ATM",
	"categories": "7, 5",
	"address": "1155 Metcalfe,  H3B 5G2",
	"latitude": 45.500052,
	"longitude": -73.570376,
	"id": 192
}, {
	"name": "National Bank ATM",
	"categories": "7, 5",
	"address": "800 De Maisonneuve,  H3A 3E4",
	"latitude": 45.503373,
	"longitude": -73.572391,
	"id": 193
}, {
	"name": "National Bank ATM",
	"categories": "7, 5",
	"address": "2100 University,  H3A 2T3",
	"latitude": 45.504502,
	"longitude": -73.572668,
	"id": 194
}, {
	"name": "National Bank ATM",
	"categories": "7, 5",
	"address": "500 Sherbrooke W,  H3A 3G6",
	"latitude": 45.506209,
	"longitude": -73.572113,
	"id": 195
}, {
	"name": "BMO Branch",
	"categories": "6, 5",
	"address": "2005 Peel,  H3A 1T7",
	"latitude": 45.501082,
	"longitude": -73.574813,
	"id": 196
}, {
	"name": "BMO Branch",
	"categories": "6, 5",
	"address": "1155 Metcalfe,  H3B 2V7",
	"latitude": 45.500052,
	"longitude": -73.570376,
	"id": 197
}, {
	"name": "BMO Branch",
	"categories": "6, 5",
	"address": "670 St-Catherine W, H3B 1C1",
	"latitude": 45.502973,
	"longitude": -73.5698,
	"id": 198
}, {
	"name": "BMO ATM",
	"categories": "6, 5",
	"address": "705 St-Catherine W,  H3B 4G5",
	"latitude": 45.502841,
	"longitude": -73.571638,
	"id": 199
}, {
	"name": "RBC Branch",
	"categories": "9, 5",
	"address": "1 Place Ville Marie,  H3C 3B5",
	"latitude": 45.501461,
	"longitude": -73.569412,
	"id": 200
}, {
	"name": "RBC Branch",
	"categories": "9, 5",
	"address": "1100 Sherbrooke W,  H3A 1G7",
	"latitude": 45.501556,
	"longitude": -73.576562,
	"id": 201
}, {
	"name": "RBC Branch",
	"categories": "9, 5",
	"address": "300 Leo Pariseau,  H2X 4B3",
	"latitude": 45.511569,
	"longitude": -73.576509,
	"id": 202
}, {
	"name": "RBC Branch",
	"categories": "9, 5",
	"address": "2157 Guy,  H3H 2L9",
	"latitude": 45.496279,
	"longitude": -73.580176,
	"id": 203
}, {
	"name": "RBC Branch",
	"categories": "9, 5",
	"address": "1140 St-Catherine W,  H3B 1H7",
	"latitude": 45.499423,
	"longitude": -73.573423,
	"id": 204
}, {
	"name": "RBC ATM",
	"categories": "9, 5",
	"address": "Mcintyre Medical Centre",
	"latitude": 45.502297,
	"longitude": -73.581726,
	"id": 205
}, {
	"name": "RBC ATM",
	"categories": "9, 5",
	"address": "McConnell Engineering Building",
	"latitude": 45.505955,
	"longitude": -73.576263,
	"id": 206
}, {
	"name": "RBC ATM",
	"categories": "9, 5",
	"address": "Bronfman Management Building",
	"latitude": 45.502572,
	"longitude": -73.576442,
	"id": 207
}, {
	"name": "RBC ATM",
	"categories": "9, 5",
	"address": "Sir Arthur Currie Gymnasium",
	"latitude": 45.510004,
	"longitude": -73.579659,
	"id": 208
}, {
	"name": "RBC ATM",
	"categories": "9, 5",
	"address": "Burnside Hall",
	"latitude": 45.504704,
	"longitude": -73.574985,
	"id": 209
}, {
	"name": "RBC ATM",
	"categories": "9, 5",
	"address": "New Residence Hall",
	"latitude": 45.510903,
	"longitude": -73.57615,
	"id": 210
}, {
	"name": "RBC ATM",
	"categories": "9, 5",
	"address": "Sherbrooke 688",
	"latitude": 45.504565,
	"longitude": -73.573175,
	"id": 211
}, {
	"name": "RBC ATM",
	"categories": "9, 5",
	"address": "Redpath Library Building",
	"latitude": 45.503501,
	"longitude": -73.576593,
	"id": 212
}, {
	"name": "RBC ATM",
	"categories": "9, 5",
	"address": "Chancellor Day Building",
	"latitude": 45.502951,
	"longitude": -73.58084,
	"id": 213
}, {
	"name": "RBC ATM",
	"categories": "9, 5",
	"address": "Education Building",
	"latitude": 45.504333,
	"longitude": -73.580492,
	"id": 214
}]
